[
  {
    "id": 1,
    "title": "MS Flux",
    "website": "www.google.com",
    "image": " ",
    "address": [
      {
        "id": 1,
        "country": "Finland",
        "city": "Helsinki",
        "street": "Hogbergsgatan 35",
        "postcode": "00101",
        "lat": "60.165238",
        "lng": "24.946249"
      }
    ]
  },
  {
    "id": 2,
    "title": "MS Flux",
    "website": "www.google.com",
    "image": " ",
    "address": [
      {
        "id": 1,
        "country": "Finland",
        "city": "Helsinki",
        "street": "Yliopistonkatu 4",
        "postcode": "00101",
        "lat": "60.169787",
        "lng": "24.948776"
      }
    ]
  },
  {
    "id": 3,
    "title": "MS Flux",
    "website": "www.google.com",
    "image": " ",
    "address": [
      {
        "id": 1,
        "country": "Finland",
        "city": "Helsinki",
        "street": "Ladugordsbogen 3",
        "postcode": "00790",
        "lat": "60.228029",
        "lng": "25.015569"
      }
    ]
  },
  {
    "id": 4,
    "title": "MS Flux",
    "website": "www.google.com",
    "image": " ",
    "address": [
      {
        "id": 1,
        "country": "Finland",
        "city": "Helsinki",
        "street": "Haartmansgatan 4",
        "postcode": "00290",
        "lat": "60.190711",
        "lng": "24.907195"
      }
    ]
  }
]
